{
"emd": [
{
"name": "부강면",
"lon": 127.378954,
"lat": 36.523922
},
{
"name": "조치원읍",
"lon": 127.286315,
"lat": 36.607978
},
{
"name": "소정면",
"lon": 127.167799,
"lat": 36.72028
},
{
"name": "집현동",
"lon": 127.329253,
"lat": 36.499285
},
{
"name": "반곡동",
"lon": 127.311426,
"lat": 36.491886
},
{
"name": "누리동",
"lon": 127.291362,
"lat": 36.528905
},
{
"name": "세종동",
"lon": 127.290698,
"lat": 36.503844
},
{
"name": "산울동",
"lon": 127.253898,
"lat": 36.531886
},
{
"name": "한별동",
"lon": 127.275189,
"lat": 36.536199
},
{
"name": "장군면",
"lon": 127.20765,
"lat": 36.502939
},
{
"name": "가람동",
"lon": 127.246296,
"lat": 36.47043
},
{
"name": "한솔동",
"lon": 127.254427,
"lat": 36.477285
},
{
"name": "나성동",
"lon": 127.263592,
"lat": 36.486748
},
{
"name": "어진동",
"lon": 127.264023,
"lat": 36.501733
},
{
"name": "도담동",
"lon": 127.260448,
"lat": 36.514677
},
{
"name": "해밀동",
"lon": 127.270256,
"lat": 36.526535
},
{
"name": "새롬동",
"lon": 127.24889,
"lat": 36.485509
},
{
"name": "다정동",
"lon": 127.245005,
"lat": 36.494873
},
{
"name": "종촌동",
"lon": 127.24733,
"lat": 36.503439
},
{
"name": "아름동",
"lon": 127.246276,
"lat": 36.515401
},
{
"name": "고운동",
"lon": 127.23565,
"lat": 36.518701
},
{
"name": "용호동",
"lon": 127.309119,
"lat": 36.53906
},
{
"name": "다솜동",
"lon": 127.321319,
"lat": 36.53462
},
{
"name": "합강동",
"lon": 127.332044,
"lat": 36.52429
},
{
"name": "대평동",
"lon": 127.274274,
"lat": 36.47042
},
{
"name": "보람동",
"lon": 127.289896,
"lat": 36.477784
},
{
"name": "소담동",
"lon": 127.301022,
"lat": 36.484289
},
{
"name": "연기면",
"lon": 127.249919,
"lat": 36.544558
},
{
"name": "연동면",
"lon": 127.329901,
"lat": 36.552661
},
{
"name": "금남면",
"lon": 127.298348,
"lat": 36.451833
},
{
"name": "연서면",
"lon": 127.245841,
"lat": 36.584144
},
{
"name": "전동면",
"lon": 127.250228,
"lat": 36.656438
},
{
"name": "전의면",
"lon": 127.188233,
"lat": 36.661605
}
],
"rivers": [
{
"name": "행화천",
"grade": "지방하천",
"lon": 127.245668,
"lat": 36.585882
},
{
"name": "국촌천",
"grade": "지방하천",
"lon": 127.255112,
"lat": 36.574991
},
{
"name": "봉암천",
"grade": "지방하천",
"lon": 127.259826,
"lat": 36.556419
},
{
"name": "월하천",
"grade": "지방하천",
"lon": 127.248436,
"lat": 36.595132
},
{
"name": "내삼천",
"grade": "지방하천",
"lon": 127.287034,
"lat": 36.508743
},
{
"name": "양안천",
"grade": "지방하천",
"lon": 127.16976,
"lat": 36.682907
},
{
"name": "금천",
"grade": "지방하천",
"lon": 127.307984,
"lat": 36.438864
},
{
"name": "조천2",
"grade": "지방하천",
"lon": 127.232838,
"lat": 36.64162
},
{
"name": "덕현천",
"grade": "지방하천",
"lon": 127.196329,
"lat": 36.683335
},
{
"name": "북암천",
"grade": "지방하천",
"lon": 127.207273,
"lat": 36.694179
},
{
"name": "미호천",
"grade": "국가하천",
"lon": 127.307419,
"lat": 36.545801
},
{
"name": "삼성천",
"grade": "지방하천",
"lon": 127.331381,
"lat": 36.482278
},
{
"name": "안산천",
"grade": "지방하천",
"lon": 127.287353,
"lat": 36.419948
},
{
"name": "쌍류천",
"grade": "지방하천",
"lon": 127.207828,
"lat": 36.598747
},
{
"name": "은룡천",
"grade": "지방하천",
"lon": 127.207445,
"lat": 36.491437
},
{
"name": "정계천",
"grade": "지방하천",
"lon": 127.216549,
"lat": 36.506614
},
{
"name": "율곡천",
"grade": "지방하천",
"lon": 127.208475,
"lat": 36.510905
},
{
"name": "원봉천",
"grade": "지방하천",
"lon": 127.240703,
"lat": 36.446973
},
{
"name": "봉곡천",
"grade": "지방하천",
"lon": 127.256633,
"lat": 36.408157
},
{
"name": "대교천",
"grade": "지방하천",
"lon": 127.214882,
"lat": 36.501098
},
{
"name": "맹곡천",
"grade": "지방하천",
"lon": 127.161632,
"lat": 36.729513
},
{
"name": "근동천",
"grade": "지방하천",
"lon": 127.19922,
"lat": 36.496005
},
{
"name": "금강천",
"grade": "지방하천",
"lon": 127.295235,
"lat": 36.487822
},
{
"name": "송정천",
"grade": "지방하천",
"lon": 127.185134,
"lat": 36.510024
},
{
"name": "제천",
"grade": "지방하천",
"lon": 127.251958,
"lat": 36.503001
},
{
"name": "용두천",
"grade": "지방하천",
"lon": 127.206034,
"lat": 36.545273
},
{
"name": "내창천",
"grade": "지방하천",
"lon": 127.289389,
"lat": 36.606491
},
{
"name": "송성천",
"grade": "지방하천",
"lon": 127.218398,
"lat": 36.635477
},
{
"name": "신치천",
"grade": "지방하천",
"lon": 127.189126,
"lat": 36.529377
},
{
"name": "용호천",
"grade": "지방하천",
"lon": 127.313222,
"lat": 36.53782
},
{
"name": "연기천",
"grade": "지방하천",
"lon": 127.261997,
"lat": 36.543733
},
{
"name": "방축천",
"grade": "지방하천",
"lon": 127.259573,
"lat": 36.513488
},
{
"name": "곡교천",
"grade": "지방하천",
"lon": 127.152996,
"lat": 36.708623
},
{
"name": "도남천",
"grade": "지방하천",
"lon": 127.234841,
"lat": 36.43799
},
{
"name": "성강천",
"grade": "지방하천",
"lon": 127.253127,
"lat": 36.416689
},
{
"name": "유천천",
"grade": "지방하천",
"lon": 127.334945,
"lat": 36.463957
},
{
"name": "내동천",
"grade": "지방하천",
"lon": 127.288174,
"lat": 36.452937
},
{
"name": "송곡천",
"grade": "지방하천",
"lon": 127.256348,
"lat": 36.629311
},
{
"name": "노장천",
"grade": "지방하천",
"lon": 127.268561,
"lat": 36.669401
},
{
"name": "백천",
"grade": "지방하천",
"lon": 127.359575,
"lat": 36.532672
},
{
"name": "용포천",
"grade": "소하천",
"lon": 127.281334,
"lat": 36.469618
},
{
"name": "비학천",
"grade": "소하천",
"lon": 127.224022,
"lat": 36.48344
}
]
}